Name,Lat,Lng
"Juarez, Ciudad De Mexico",19.426753,-99.16184489999999
"Santiago Amoltepec, Oaxaca",16.6412266,-97.49587539999999
"Jesus Maria, Ciudad De Mexico",19.4285562,-99.12851049999999
"Jesus Maria, Colima",19.2452342,-103.7240868
"Pantepec, Oaxaca",20.5200163,-97.9388566
"La Libertad, Yucatan",21.2519444,-87.77999989999999
"Saltillo, Coahuila De Zaragoza",25.4383234,-100.973678
"San Pedro, Mexico",25.6797838,-100.4168299
"La Independencia, Puebla",18.9761915,-98.2435045
"Aguascalientes, Aguascalientes",21.8852562,-102.2915677
"San Jose De Gracia, Baja California Sur",26.5877777,-112.7236111
"Matamoros, Zacatecas",24.8630555,-101.9952777
"Torreon, Coahuila De Zaragoza",25.5428443,-103.4067861
"Rincon De Romos, Ciudad De Mexico",22.2289132,-102.3206187
"Cosio, Ciudad De Mexico",19.38651,-99.1708046
"Pabellon De Arteaga, Morelos",22.1512779,-102.2746543
"Calvillo, Baja California Sur",21.8468345,-102.7186454
"Ixhuatan, Sonora",17.2925874,-93.00857309999999
"Juarez, Guanajuato",21.0153392,-101.2529986
"Villa Union, Chihuahua",28.69307,-106.138979
"Motozintla, Mexico",15.3691977,-92.2458096
"Jesus Maria, Tlaxcala",19.2803305,-98.2387823
"Asientos, Ciudad De Mexico",19.4514232,-99.1183021
"Tepezala, Chiapas",22.2241419,-102.1738022
"Tzimol, Mexico",16.1822673,-92.1845482
"El Llano, Ciudad De Mexico",19.28992,-99.14014499999999
"Ixhuatan, Zacatecas",16.3489502,-94.48255119999999
"Pabellon De Arteaga, Ciudad De Mexico",22.144474,-102.274822
"Jimenez, Ciudad De Mexico",27.1301401,-104.9230692
"Rincon De Romos, Durango",22.2289132,-102.3206187
"Sabinas, San Luis Potosi",22.1410263,-100.916814
"Matamoros, Ciudad De Mexico",19.3396593,-99.19575619999999
"Rincon Chamula San Pedro, Mexico",17.2076094,-92.9382114
"Parras, Mexico",25.4492883,-102.1747077
"Matamoros, Nayarit",32.4958872,-116.886105
"Calvillo, Ciudad De Mexico",21.8468345,-102.7186454
"Jimenez, Queretaro",20.6046696,-100.3943963
"Guerrero, Sinaloa",25.4833688,-108.3704892
"Benemerito De Las Americas, Puebla",19.0714446,-98.1980018
"Asientos, Colima",19.2452342,-103.7240868
"El Llano, Colima",19.2700208,-103.7397778
"Monclova, Coahuila De Zaragoza",26.9080378,-101.4215236
"La Trinitaria, Mexico",16.1188865,-92.0518154
"Hidalgo, Ciudad De Mexico",19.4306575,-99.20839529999999
"San Jose De Gracia, Ciudad De Mexico",22.1475929,-102.4129804
"Mazapa De Madero, Michoacan De Ocampo",15.387171,-92.187527
"Nicolas Ruiz, Mexico",16.4384722,-92.5836337
"Venustiano Carranza, Mexico",19.4306069,-99.0949899
"Aguascalientes, Guerrero",16.8424999,-99.64055549999999
"Ramos Arizpe, Coahuila De Zaragoza",25.5411499,-100.9483074
"Huitiupan, Jalisco",17.1705587,-92.6853429
"Pabellon De Arteaga, Sinaloa",22.144474,-102.274822
"San Francisco De Los Romo, Sinaloa",22.0745573,-102.2690988
"Pichucalco, Veracruz De Ignacio De La Llave",18.8475964,-97.10649869999999
"Rincon De Romos, Morelos",22.2351819,-102.358329
"Guerrero, Ciudad De Mexico",19.4445231,-99.14254230000002
"San Jose De Gracia, Quintana Roo",22.1475929,-102.4129804
"Ramos Arizpe, Guanajuato",25.5248362,-100.951194
"Morelos, Chiapas",17.0737055,-93.1325798
"Sunuapa, Jalisco",17.4901243,-93.2423498
"Pijijiapan, Puebla",15.6851709,-93.2122536
"Lamadrid, Ciudad De Mexico",19.3991223,-99.171066
"Juarez, Hidalgo",20.7857042,-98.82800639999999
"San Francisco De Los Romo, Ciudad De Mexico",22.0745573,-102.2690988
"San Buenaventura, Mexico",27.0554305,-101.5441455
"Villaflores, Mexico",16.2329693,-93.2734517
"Ocosingo, Puebla",16.908651,-92.09467149999999
"El Llano, Coahuila De Zaragoza",29.1013067,-102.8793316
"Mapastepec, Hidalgo",15.4329682,-92.8978399
"Ocotepec, Mexico",18.9695237,-99.2263574
"Rincon De Romos, Aguascalientes",22.2289132,-102.3206187
"Aguascalientes, Baja California",32.2819878,-115.1140592
"Juarez, Nayarit",21.6901277,-105.3888136
"San Jose De Gracia, Morelos",20.6741059,-102.5716834
"Piedras Negras, Morelos",28.6805128,-100.5078173
"Morelos, Nuevo Leon",25.1889176,-99.8363028
"Villa Union, Mexico",28.2237682,-100.7255689
"Juarez, Sinaloa",24.6554165,-107.5423794
"Jiquipilas, Nuevo Leon",16.66914,-93.6480054
"Zaragoza, Tamaulipas",27.484189,-99.49644520000001
"Pantepec, Jalisco",20.5200163,-97.9388566
"Monclova, Morelos",26.8917147,-101.4173511
"Santiago El Pinar, Puebla",19.0414398,-98.2062727
"Huitiupan, Mexico",17.1705587,-92.6853429
"El Parral, Mexico",26.9317835,-105.6666166
"Pabellon De Arteaga, Aguascalientes",22.144474,-102.274822
"San Jose De Gracia, Sinaloa",26.1463888,-107.8913887
"Rayon, Jalisco",20.6678881,-103.3570011
"El Llano, Michoacan De Ocampo",20.0317259,-102.3793231
"Huitiupan, Nuevo Leon",17.1705587,-92.6853429
"Cosio, Tabasco",17.9764322,-92.98526129999999
"Monclova, Sinaloa",26.8913622,-101.3815164
"Aguascalientes, Quintana Roo",21.9059816,-102.2967251
"Tuxtla Gutierrez, Chiapas",16.7516009,-93.1029939
"Muzquiz, Guanajuato",20.5146804,-100.7871151
"Santa Lucia Del Camino, Oaxaca",17.061863,-96.6971832
"Palenque, Chiapas",17.5109792,-91.9930466
"Sabinas, Jalisco",26.5039114,-100.1766158
"San Dionisio Ocotepec, Veracruz De Ignacio De La Llave",16.7983019,-96.3965776
"Jesus Maria, Baja California",28.2813888,-114.0011111
"Pabellon De Arteaga, Nuevo Leon",22.144474,-102.274822
"Monclova, Sonora",26.8874935,-101.4289809
"Animas Trujano, Puebla",16.9892472,-96.7132783
"San Francisco De Los Romo, Mexico",22.0745573,-102.2690988
"Hidalgo, Tabasco",18.2592639,-93.31174109999999
"Soyalo, Puebla",16.8905692,-92.9227329
"Ixhuatan, Guanajuato",16.3489502,-94.48255119999999
"Matamoros, Sinaloa",25.8418516,-97.5123631
"Tuxtla Gutierrez, Mexico",16.7516009,-93.1029939
"Sabanilla, Mexico",17.2822829,-92.5517584
"Nava, Tamaulipas",28.4212302,-100.7638814
"Sabinas, Veracruz De Ignacio De La Llave",21.3180717,-97.8808296
"San Cristobal Lachirioag, Veracruz De Ignacio De La Llave",17.3369574,-96.1640333
"Ocotepec, Michoacan De Ocampo",19.5528459,-97.6471139
"Ixtapangajoya, Puebla",17.495665,-93.001862
"Saltillo, Sonora",25.4055613,-100.9205674
"Ixtapangajoya, Nuevo Leon",17.495665,-93.001862
"Maravilla Tenejapa, Mexico",16.1409664,-91.2927151
"San Juan Chicomezuchil, Puebla",19.0978835,-98.21412099999999
"San Francisco Chindua, Puebla",17.4292209,-97.3116112
"Sacramento, Sonora",38.5815719,-121.4943996
"Calvillo, Guanajuato",21.1133334,-101.1330555
"Pabellon De Arteaga, Jalisco",22.144474,-102.274822
"Sacramento, Morelos",38.5740674,-121.4181263
"San Jose De Gracia, Mexico",22.1475929,-102.4129804
"Sierra Mojada, Puebla",27.2906955,-103.7014059
"Piedras Negras, Coahuila De Zaragoza",28.6916182,-100.5408622
"San Juan Bautista Guelache, Veracruz De Ignacio De La Llave",17.2272433,-96.7773563
"Solosuchiapa, Michoacan De Ocampo",17.4297762,-93.0355476
"Tepezala, Tamaulipas",22.2241419,-102.1738022
"San Juan Cacahuatepec, Puebla",16.6156152,-98.1567443
"Sacramento, Guerrero",38.5172816,-121.4339657
"Sacramento, Mexico",27.0033867,-101.7247054
"Santa Maria Huatulco, Oaxaca",15.8340071,-96.31994879999999
"Ixtapa, Tlaxcala",17.6625661,-101.58734
"San Pedro, Guanajuato",21.1174999,-100.6663887
"Monclova, Mexico",26.9080378,-101.4215236
"El Llano, Sinaloa",25.3302777,-108.2686111
"Progreso, Nuevo Leon",25.6976991,-100.3350543
"Calvillo, Campeche",21.8468345,-102.7186454
"Suchiate, Veracruz De Ignacio De La Llave",14.625187,-92.243931
"Jesus Maria, Mexico",20.6040529,-102.2236954
"Nadadores, Morelos",27.0293849,-101.5916295
"Ocotepec, Sonora",18.9695237,-99.2263574
"Ixtapangajoya, Oaxaca",17.495665,-93.001862
"Ixtapa, Veracruz De Ignacio De La Llave",17.6625661,-101.58734
"Pabellon De Arteaga, Coahuila De Zaragoza",22.144474,-102.274822
"Muzquiz, Nayarit",27.8773593,-101.4830266
"Tepezala, Quintana Roo",22.2241419,-102.1738022
"Tuzantan, Mexico",15.1466006,-92.4221065
"Matamoros, Guanajuato",25.8561878,-97.5030211
"Ixtacomitan, Oaxaca",17.4295464,-93.0973264
"Jimenez, Tlaxcala",19.3099175,-98.24262979999999
"Las Margaritas, Hidalgo",19.9981577,-98.72461899999999
"Progreso, Tlaxcala",19.2025953,-97.90413939999999
"Santa Cruz Xoxocotlan, Oaxaca",17.0193584,-96.74942159999999
"Matamoros, Guerrero",18.4505555,-101.8413888
"San Pedro, Sonora",27.0171299,-109.6239011
"San Juan De Sabinas, Tamaulipas",27.9270787,-101.3023954
"Matamoros, Coahuila De Zaragoza",25.5260426,-103.2259525
"El Llano, Zacatecas",23.2299152,-102.6767094
"Ramos Arizpe, Tamaulipas",22.2599602,-97.8361199
"Rincon De Romos, Tabasco",22.2289132,-102.3206187
"Sabinas, Tlaxcala",27.8647835,-101.1334267
"Hidalgo, Tlaxcala",19.3162266,-98.2378853
"Piedras Negras, Mexico",28.6916182,-100.5408622
"Juarez, Puebla",19.0513101,-98.2178404
"Huitiupan, Veracruz De Ignacio De La Llave",17.1705587,-92.6853429
"Pabellon De Arteaga, Queretaro",22.144474,-102.274822
"Ixtapangajoya, Sonora",17.495665,-93.001862
"Viesca, Sonora",25.3453848,-102.8083503
"Pijijiapan, Hidalgo",15.6919185,-93.2095719
"Calvillo, Quintana Roo",21.8573666,-102.6949386
"Matamoros, Tabasco",17.553794,-92.9029149
"Nadadores, Hidalgo",27.0253414,-101.5922319
"Calvillo, Tabasco",21.8468345,-102.7186454
"Asientos, Mexico",22.2384759,-102.0890156
"Monclova, Nuevo Leon",25.8145436,-100.3982221
"San Pedro, Tlaxcala",19.3066666,-98.14
"Aguascalientes, Jalisco",21.9057027,-102.2604448
"Tuzantan, Michoacan De Ocampo",19.2066671,-100.5753759
"San Ildefonso Villa Alta, Puebla",17.3385986,-96.1523763
"Tepezala, Aguascalientes",22.2241419,-102.1738022
"San Mateo Rio Hondo, Oaxaca",16.1694647,-96.50096180000001
"Metapa, Guerrero",14.8404304,-92.18839799999999
"Las Margaritas, Michoacan De Ocampo",19.7106758,-101.2077552
"Tepezala, Tabasco",22.2241419,-102.1738022
"Cosio, Quintana Roo",20.4558455,-86.98384519999999
"Asientos, Campeche",22.2384759,-102.0890156
"Lamadrid, Veracruz De Ignacio De La Llave",19.9512132,-97.2122028
"San Francisco De Los Romo, Guanajuato",22.0745573,-102.2690988
"Aguascalientes, Sinaloa",21.8574258,-102.2815466
"Mitontic, Puebla",16.8608333,-92.62823189999999
"Mazapa De Madero, Mexico",15.387171,-92.187527
"Torreon, Michoacan De Ocampo",19.7333947,-101.1964253
"Asientos, Aguascalientes",22.2384759,-102.0890156
"Las Margaritas, Chihuahua",28.6153008,-105.9854114
"Palenque, Veracruz De Ignacio De La Llave",18.3744739,-96.307323
"Ixtacomitan, Sonora",17.4295464,-93.0973264
"San Sebastian Teitipac, Oaxaca",16.9512683,-96.6140377
"Huitiupan, Tlaxcala",17.1705587,-92.6853429
"Torreon, San Luis Potosi",22.1383813,-100.9145352
"Jimenez, Mexico",27.1301401,-104.9230692
"Aguascalientes, Guanajuato",21.019698,-101.2747282
"San Juan Petlapa, Puebla",17.4683504,-96.0359558
"Sabinas, Durango",27.8647835,-101.1334267
"Aguascalientes, Tabasco",21.9050519,-102.2983904
"Santa Maria Atzompa, Oaxaca",17.0916983,-96.76813659999999
"El Porvenir, Mexico",31.2412038,-105.875224
"Totolapa, Jalisco",16.5449932,-92.6778882
"La Independencia, Tamaulipas",24.2286112,-99.5230555
"Aguascalientes, Campeche",21.8767219,-102.3153793
"Hidalgo, Hidalgo",26.1003547,-98.2630684
"Tonala, Jalisco",20.6237413,-103.2413723
"Tuxtla Chico, Michoacan De Ocampo",14.9374337,-92.1671288
"Reforma, Jalisco",20.668986,-103.3334617
"San Andres Duraznal, Mexico",17.1328015,-92.80475039999999
"San Francisco De Los Romo, Veracruz De Ignacio De La Llave",22.0745573,-102.2690988
"Hidalgo, Oaxaca",15.9258292,-96.4200279
"Mitontic, Zacatecas",16.8608333,-92.62823189999999
"Calvillo, Tamaulipas",25.8430412,-97.5289581
"Tuxtla Gutierrez, Yucatan",16.7947632,-93.09889559999999
"Tepezala, Michoacan De Ocampo",22.2241419,-102.1738022
"Guerrero, Morelos",30.72665799999999,-115.990871
"Rincon De Romos, Guanajuato",22.2289132,-102.3206187
"Tuxtla Gutierrez, Jalisco",16.7642961,-93.1791712
"Lamadrid, Queretaro",20.5887932,-100.3898881
"Ixhuatan, Mexico",16.3489502,-94.48255119999999
"Tuxtla Chico, Yucatan",14.9374337,-92.1671288
"Asientos, Morelos",18.8437181,-99.19629859999999
"San Jose Chiltepec, Puebla",17.9552317,-96.1561301
"Reforma, Puebla",19.0651682,-98.23667929999999
"Jesus Maria, Aguascalientes",21.9635744,-102.3441041
"Villaflores, Jalisco",16.2329693,-93.2734517
"Mapastepec, Puebla",15.4329682,-92.8978399
"Sabinas, Hidalgo",26.5088029,-100.1759285
"Metapa, Sonora",14.8404304,-92.18839799999999
"Calvillo, Baja California",21.7913906,-102.7469123
"Parras, Hidalgo",25.4492883,-102.1747077
"Huitiupan, Michoacan De Ocampo",17.1705587,-92.6853429
"Pabellon De Arteaga, Chihuahua",22.144474,-102.274822
"San Francisco De Los Romo, San Luis Potosi",22.0400425,-102.279732
"Tumbala, Jalisco",17.2769854,-92.3158981
"Soyalo, Veracruz De Ignacio De La Llave",16.8905692,-92.9227329
"San Pedro, Guerrero",17.2638122,-100.8816546
"San Pedro, Tamaulipas",23.8641666,-99.38083329999999
"San Francisco Ixhuatan, Veracruz De Ignacio De La Llave",16.3489502,-94.48255119999999
"Jesus Maria, Sinaloa",25.6144444,-108.7808333
"Mazapa De Madero, Jalisco",15.387171,-92.187527
"Huitiupan, Hidalgo",17.1705587,-92.6853429
"Salto De Agua, Jalisco",20.5132465,-103.1756761
"Tepezala, Ciudad De Mexico",19.4513658,-99.1180328
"Ramos Arizpe, Chiapas",25.5330371,-100.9762788
"Pantelho, Michoacan De Ocampo",17.0050996,-92.46906919999999
"Torreon, Mexico",25.5428443,-103.4067861
"Jitotol, Mexico",17.0667204,-92.86038239999999
"San Andres Duraznal, Jalisco",17.1328015,-92.80475039999999
"Juarez, Nuevo Leon",25.6516471,-100.1059194
"Villa Union, Guanajuato",21.0190145,-101.2573586
"San Francisco De Los Romo, Quintana Roo",22.0745573,-102.2690988
"Nadadores, Mexico",27.0253414,-101.5922319
"Santa Maria Del Tule, Oaxaca",17.0447413,-96.6330819
"Villa De Tamazulapam Del Progreso, Oaxaca",17.6724247,-97.57204809999999
"Ocozocoautla De Espinosa, Guerrero",16.6799999,-93.2619399
"Oxchuc, Mexico",16.7880529,-92.3455194
"Jimenez, Coahuila De Zaragoza",29.0693962,-100.6771871
"Pabellon De Arteaga, Oaxaca",22.144474,-102.274822
"Reforma, Mexico",32.2855827,-110.9426103
"San Jose De Gracia, Tabasco",19.98917,-103.0213926
"Mazapa De Madero, Guerrero",15.387171,-92.187527
"Pijijiapan, Michoacan De Ocampo",15.6851709,-93.2122536
"Aguascalientes, Nayarit",21.8614775,-102.2800866
"Parras, Tlaxcala",25.4492883,-102.1747077
"Tepezala, Sinaloa",22.2241419,-102.1738022
"Calvillo, Hidalgo",21.8468345,-102.7186454
"Aguascalientes, Mexico",21.8852562,-102.2915677
"Matamoros, Sonora",32.474963,-116.873092
"Calvillo, Michoacan De Ocampo",18.5112231,-103.3551713
"Ixtapangajoya, Chihuahua",17.495665,-93.001862
"Jitotol, Jalisco",17.0667204,-92.86038239999999
"San Francisco De Los Romo, Campeche",22.0745573,-102.2690988
"Tumbala, Michoacan De Ocampo",17.2769854,-92.3158981
"Ocosingo, Tlaxcala",16.9087202,-92.0943704
"Socoltenango, Veracruz De Ignacio De La Llave",16.2439259,-92.3504194
"San Pablo Huitzo, Oaxaca",17.2761297,-96.88299889999999
"Tapilula, Mexico",17.2501706,-93.01677699999999
"Ixtacomitan, Tlaxcala",17.4295464,-93.0973264
"Metapa, Hidalgo",14.8404304,-92.18839799999999
"Muzquiz, San Luis Potosi",22.1211109,-100.9194744
"Ocotepec, Tlaxcala",19.5528459,-97.6471139
"San Miguel Soyaltepec, Oaxaca",18.2372452,-96.4045713
"Ixtapangajoya, Veracruz De Ignacio De La Llave",17.495665,-93.001862
"San Buenaventura, Nuevo Leon",27.0554305,-101.5441455
"Muzquiz, Morelos",27.8719037,-101.5059817
"Asientos, Coahuila De Zaragoza",27.883429,-101.1461807
"Saltillo, Chiapas",16.3947906,-91.95024339999999
"Tuxtla Chico, Veracruz De Ignacio De La Llave",14.9374337,-92.1671288
"Villa Union, Oaxaca",17.0801422,-96.7069258
"Sabinas, Mexico",27.8647835,-101.1334267
"Animas Trujano, Oaxaca",16.9892472,-96.7132783
"Osumacinta, Hidalgo",16.9359747,-93.0917209
"Ixtapa, Guanajuato",17.649423,-101.543504
"Tepezala, Mexico",22.2241419,-102.1738022
"Pabellon De Arteaga, Durango",22.144474,-102.274822
"Parras, Morelos",25.4492883,-102.1747077
"Ixtapangajoya, Michoacan De Ocampo",17.495665,-93.001862
"Guerrero, Tabasco",18.3892414,-92.8955149
"Mapastepec, Guerrero",15.4329682,-92.8978399
"Santiago Suchilquitongo, Oaxaca",17.249783,-96.8726295
"San Felipe Tejalapam, Veracruz De Ignacio De La Llave",17.1100262,-96.85396740000002
"Pueblo Nuevo Solistahuacan, Mexico",17.1578347,-92.8996804
"Calvillo, Coahuila De Zaragoza",21.8468345,-102.7186454
"Matamoros, Chihuahua",26.7619952,-105.5866689
"Sunuapa, Mexico",17.4901243,-93.2423498
"Jiquipilas, Guanajuato",16.66914,-93.6480054
"Yajalon, Michoacan De Ocampo",17.1734888,-92.32955799999999
"Rincon De Romos, Colima",22.2272981,-102.327029
"San Buenaventura, Tlaxcala",19.3251794,-98.2199308
"San Ildefonso Sola, Veracruz De Ignacio De La Llave",16.5192717,-96.98257819999999
"Morelos, Hidalgo",20.798274,-99.2697889
"Nadadores, Guerrero",27.027067,-101.590899
"Zaragoza, Chihuahua",30.1841666,-108.3277777
"San Francisco Cajonos, Veracruz De Ignacio De La Llave",17.1722291,-96.250976
"Jiquipilas, Zacatecas",16.66914,-93.6480054
"Nadadores, Guanajuato",21.1095234,-101.6375588
"Lamadrid, Tlaxcala",27.0505964,-101.7932329
"Piedras Negras, Tlaxcala",19.501172,-98.05693699999999
"Parras, Jalisco",20.639326,-103.312858
"Sabinas, Morelos",26.4858806,-100.185384
"Rincon De Romos, Quintana Roo",22.2289132,-102.3206187
"Teopisca, Jalisco",16.5414817,-92.47262119999999
"San Jorge Nuchita, Puebla",17.656063,-98.10754639999999
"Aldama, Puebla",19.0491279,-98.1787593
"El Llano, Nuevo Leon",25.2319444,-99.7333333
"San Francisco De Los Romo, Morelos",22.0729685,-102.2753071
"Torreon, Guerrero",25.5391667,-103.4497222
"Saltillo, Morelos",25.4118406,-100.9446751
"Zaragoza, Veracruz De Ignacio De La Llave",17.881111,-94.960556
"El Porvenir, Guerrero",16.7763887,-99.1949999
"Tapachula, Yucatan",14.9055567,-92.26341359999999
"Calvillo, San Luis Potosi",22.1393524,-100.991983
"Matamoros, Queretaro",20.5929137,-100.3951164
"San Juan De Sabinas, Michoacan De Ocampo",27.9270787,-101.3023954
"Asientos, Tlaxcala",19.2661771,-98.1985716
"Ixtacomitan, Mexico",17.4295464,-93.0973264
"Calvillo, Tlaxcala",21.8468345,-102.7186454
"Viesca, Tlaxcala",25.3453848,-102.8083503
"La Independencia, Tlaxcala",19.3283134,-98.22552660000001
"San Juan Comaltepec, Veracruz De Ignacio De La Llave",17.3364946,-95.9773093
"Santiago El Pinar, Mexico",16.9400579,-92.71454349999999
"Sacramento, Tlaxcala",38.5815719,-121.4943996
"San Pedro, Nuevo Leon",25.6797838,-100.4168299
"Tonala, Chiapas",16.0869461,-93.7612856
"Morelos, Yucatan",19.7485675,-88.706081
"Osumacinta, Jalisco",20.6565006,-103.331949
"San Francisco Del Mar, Veracruz De Ignacio De La Llave",16.3394296,-94.5160396
"Tepezala, Morelos",19.023151,-99.25994
"Lamadrid, Tabasco",27.0505964,-101.7932329
"Venustiano Carranza, Veracruz De Ignacio De La Llave",19.1818434,-96.1371248
"Pabellon De Arteaga, Tabasco",22.144474,-102.274822
"La Independencia, Guanajuato",21.0199632,-101.2634842
"Hidalgo, Yucatan",21.0053951,-89.62634159999999
"Aguascalientes, Tlaxcala",21.8847635,-102.3137402
"La Independencia, Nuevo Leon",25.6587204,-100.3175155
"Guerrero, Veracruz De Ignacio De La Llave",18.653852,-96.561658
"Hidalgo, Sinaloa",22.8317744,-105.7791327
"Lamadrid, Morelos",27.047035,-101.796085
"San Jose Independencia, Veracruz De Ignacio De La Llave",18.389239,-96.057722
"Larrainzar, Michoacan De Ocampo",16.8820217,-92.71204159999999
"Mezcalapa, Veracruz De Ignacio De La Llave",18.4602799,-94.79028
"San Jose Independencia, Puebla",18.9762471,-98.2179737
"Jitotol, Veracruz De Ignacio De La Llave",17.0667204,-92.86038239999999
"Juarez, Mexico",31.6903638,-106.4245478
"San Francisco Huehuetlan, Puebla",18.3747771,-98.6937564
"Sabinas, Guerrero",27.8659502,-101.1216384
"Villaflores, Michoacan De Ocampo",19.9126934,-102.0168559
"Calvillo, Sinaloa",21.8468345,-102.7186454
"Juarez, Tabasco",17.8337149,-92.5301621
"Monclova, Nayarit",26.8902347,-101.4398436
"Tapalapa, Mexico",17.1898377,-93.10461409999999
"Aguascalientes, Baja California Sur",21.8983249,-102.2889472
"Jitotol, Puebla",17.0667204,-92.86038239999999
"Ocozocoautla De Espinosa, Hidalgo",16.7505846,-93.37290449999999
"Huitiupan, Oaxaca",17.1705587,-92.6853429
"San Buenaventura, Coahuila De Zaragoza",27.0554305,-101.5441455
"Sabinas, Chihuahua",27.8647835,-101.1334267
"Marques De Comillas, Puebla",16.2642157,-90.6210256
"San Juan Cancuc, Michoacan De Ocampo",16.8919079,-92.37078460000001
"Ocampo, Hidalgo",20.2040455,-98.5754259
"San Pedro Ixtlahuaca, Oaxaca",17.0627408,-96.81600499999999
"Maravilla Tenejapa, Oaxaca",16.1409664,-91.2927151
"Nadadores, Coahuila De Zaragoza",27.0253414,-101.5922319
"Tepezala, Nuevo Leon",22.2241419,-102.1738022
"Rincon De Romos, Coahuila De Zaragoza",22.2289132,-102.3206187
"Palenque, Hidalgo",20.0620288,-98.7811349
"Tepezala, Coahuila De Zaragoza",22.2241419,-102.1738022
"Tzimol, Yucatan",16.1822673,-92.1845482
"Pabellon De Arteaga, Nayarit",22.144474,-102.274822
"Pantepec, Mexico",20.5200163,-97.9388566
"Sabinas, Coahuila De Zaragoza",27.8647835,-101.1334267
"Zaragoza, Guerrero",17.9202777,-101.3236111
"Marques De Comillas, Veracruz De Ignacio De La Llave",16.2642157,-90.6210256
"Juarez, Chiapas",17.6069855,-93.19248499999999
"Solosuchiapa, Oaxaca",17.4297762,-93.0355476
"La Libertad, Tlaxcala",19.1898468,-97.9259208
"San Jose De Gracia, Guerrero",18.642789,-97.8473549
"Ocosingo, Guerrero",16.9087202,-92.0943704
"San Andres Duraznal, Veracruz De Ignacio De La Llave",17.1328015,-92.80475039999999
"Sabanilla, Hidalgo",20.5794444,-99.1338888
"San Lucas, Mexico",22.8905327,-109.9167371
"Rincon De Romos, Nayarit",22.2289132,-102.3206187
"Progreso, Guanajuato",20.3735465,-101.0683472
"San Pedro Mixtepec, Oaxaca",15.9799244,-97.0794263
"Aguascalientes, Chihuahua",28.6546446,-106.0697273
"San Jose Chiltepec, Oaxaca",17.9552317,-96.1561301
"Ixtapa, Nuevo Leon",17.6625661,-101.58734
"San Pedro, Oaxaca",16.7427935,-96.71060349999999
"Ixtapa, Mexico",17.6625661,-101.58734
"Nava, Mexico",28.4212302,-100.7638814
"Cosio, Morelos",22.8522799,-102.6153056
"Ostuacan, Chihuahua",28.7183224,-106.1480844
"Palenque, Mexico",17.5109792,-91.9930466
"Monclova, Guerrero",26.9074827,-101.4033995
"Sierra Mojada, Tlaxcala",27.2906955,-103.7014059
"Ocampo, Mexico",27.3156234,-102.3965211
"Ixtacomitan, San Luis Potosi",17.4295464,-93.0973264
"Ocampo, Michoacan De Ocampo",19.5832047,-100.3396012
"Cosio, Coahuila De Zaragoza",22.3656529,-102.2997344
"San Juan Lachao, Puebla",16.1577714,-97.12446159999999
"Sitala, Hidalgo",17.0244122,-92.3058451
"Huixtla, Mexico",15.137663,-92.46591889999999
"Pantelho, Guerrero",17.0050996,-92.46906919999999
"San Francisco Ozolotepec, Puebla",19.0414398,-98.2062727
"Mazatan, Veracruz De Ignacio De La Llave",14.8645935,-92.4480536
"Sunuapa, Michoacan De Ocampo",17.4901243,-93.2423498
"San Jose De Gracia, Durango",24.4769359,-104.741286
"Villa Union, Hidalgo",28.2205737,-100.7251363
"Pabellon De Arteaga, Quintana Roo",22.1413128,-102.2739079
"Jesus Maria, Morelos",29.1068684,-110.9680288
"Zaragoza, Mexico",28.4943597,-100.9185477
"San Juan Mazatlan, Veracruz De Ignacio De La Llave",17.0268039,-95.4396084
"San Jose De Gracia, Aguascalientes",22.1475929,-102.4129804
"Villa Comaltitlan, Puebla",15.2127239,-92.57623459999999
"Heroica Ciudad De Tlaxiaco, Oaxaca",17.268751,-97.67962899999999
"Ocosingo, Hidalgo",16.9087202,-92.0943704
"Pichucalco, Guerrero",17.511472,-93.11023449999999
"Motozintla, Hidalgo",15.3725483,-92.2399653
"Huixtla, Chiapas",15.137663,-92.46591889999999
"Ixhuatan, Tlaxcala",19.3139243,-98.2404397
"San Juan Guelavia, Puebla",16.9544217,-96.5441635
"Las Margaritas, Yucatan",21.0356516,-89.5743992
"San Juan De Sabinas, Coahuila De Zaragoza",27.9270787,-101.3023954
"Villaflores, Veracruz De Ignacio De La Llave",18.4311543,-95.1187787
"Morelos, Michoacan De Ocampo",20.0026801,-101.4128091
"San Felipe Jalapa De Diaz, Veracruz De Ignacio De La Llave",18.069931,-96.535417
"Asientos, Guanajuato",21.0190145,-101.2573586
"El Porvenir, Sonora",28.1219443,-109.8930556
"San Juan Bautista Cuicatlan, Puebla",17.800203,-96.9601704
"San Felipe Jalapa De Diaz, Puebla",18.069931,-96.535417
"Mitontic, Mexico",16.8608333,-92.62823189999999
"Mazapa De Madero, Puebla",15.387171,-92.187527
"Zaragoza, Yucatan",20.9894834,-89.60955349999999
"Huixtla, Yucatan",15.137663,-92.46591889999999
"Sabanilla, Michoacan De Ocampo",17.2822829,-92.5517584
"Ocampo, Guanajuato",21.6481453,-101.4782799
"Ramos Arizpe, Guerrero",25.5411499,-100.9483074
"El Porvenir, Hidalgo",20.428206,-98.95233069999999
"Motozintla, Zacatecas",15.3691977,-92.2458096
"Nadadores, Chihuahua",28.6329957,-106.0691004
"San Francisco De Los Romo, Chihuahua",22.0694244,-102.2719244
"Aguascalientes, Hidalgo",21.8802396,-102.2835906
"Ocampo, Yucatan",20.9724655,-89.5650908
"San Pedro, Yucatan",20.3516666,-88.2166666
"El Llano, Tlaxcala",19.4034678,-98.15690169999999
"San Pedro, Coahuila De Zaragoza",25.7572143,-102.9838564
"Emiliano Zapata, Veracruz De Ignacio De La Llave",19.5115774,-96.922268
"San Jose De Gracia, Nayarit",21.0458333,-104.2941666
"Saltillo, Mexico",25.4383234,-100.973678
"Nava, Morelos",18.9763888,-99.18444439999999
"San Juan Mixtepec, Veracruz De Ignacio De La Llave",17.3061042,-97.8305527
"Monclova, Jalisco",26.916868,-101.431258
"Jiquipilas, Puebla",16.66914,-93.6480054
"Progreso, Sonora",27.3402777,-110.0936111
"Progreso, Oaxaca",17.0452777,-97.57027769999999
"Juarez, Yucatan",21.0232521,-89.61457
"San Francisco Ixhuatan, Oaxaca",16.3489502,-94.48255119999999
"Tonala, Veracruz De Ignacio De La Llave",18.0880419,-94.08888209999999
"San Juan Cancuc, Mexico",16.8919079,-92.37078460000001
"San Francisco Ixhuatan, Puebla",19.0414398,-98.2062727
"Piedras Negras, Veracruz De Ignacio De La Llave",18.7696745,-96.1752377
"San Fernando, Mexico",24.8419162,-98.1502433
"Sierra Mojada, Veracruz De Ignacio De La Llave",27.2906955,-103.7014059
"Rincon De Romos, Tlaxcala",22.2289132,-102.3206187
"San Juan Bautista Tuxtepec, Oaxaca",18.0809028,-96.1420947
"Villaflores, Chiapas",16.2329693,-93.2734517
"Maravilla Tenejapa, Puebla",16.1409664,-91.2927151
"Palenque, Michoacan De Ocampo",17.5109792,-91.9930466
"San Juan Achiutla, Puebla",17.3437945,-97.50800369999999
"Sacramento, Chiapas",38.5815719,-121.4943996
"Villaflores, Puebla",19.0249075,-98.24491450000001
"El Llano, Durango",25.0314435,-105.4190718
"Nava, Nuevo Leon",25.731092,-100.25066
"Monclova, Tlaxcala",26.9080378,-101.4215236
"Rincon De Romos, Mexico",22.2289132,-102.3206187
"San Pedro Y San Pablo Teposcolula, Oaxaca",17.5105133,-97.488446
"San Nicolas, Oaxaca",16.4248167,-96.7426179
"Tepezala, Guanajuato",22.2241419,-102.1738022
"Cosio, Campeche",19.8429857,-90.54253969999999
"Ramos Arizpe, Tlaxcala",25.5411499,-100.9483074
"Ocotepec, Veracruz De Ignacio De La Llave",19.8046422,-97.27337829999999
"Socoltenango, Puebla",16.2439259,-92.3504194
"San Dionisio Ocotlan, Puebla",16.7466502,-96.6800509
"Solosuchiapa, Mexico",17.4297762,-93.0355476
"Torreon, Guanajuato",21.4744444,-101.4705555
"San Juan De Sabinas, San Luis Potosi",27.9270787,-101.3023954
"Guerrero, Durango",23.7321074,-103.9832684
"Juarez, Jalisco",19.9317606,-102.943186
"Cosio, Tlaxcala",19.3139243,-98.2404397
"Santiago Juxtlahuaca, Oaxaca",17.3354874,-98.0069783
"San Jose Tenango, Oaxaca",18.1516867,-96.71862829999999
"Maravilla Tenejapa, Veracruz De Ignacio De La Llave",16.1409664,-91.2927151
"San Fernando, Puebla",19.0317881,-98.22242430000001
"Villa Union, Puebla",19.0701988,-98.1194617
"Juarez, Morelos",18.6144195,-99.1781178
"Ostuacan, Mexico",17.4077827,-93.33543089999999
"Teotitlan De Flores Magon, Oaxaca",18.1345434,-97.07404679999999
"San Pedro, Veracruz De Ignacio De La Llave",18.894073,-96.9221048
"Aguascalientes, Puebla",19.085234,-98.1674484
"Pijijiapan, Guerrero",15.6851709,-93.2122536
"Sabinas, Guanajuato",20.978791,-100.758039
"Teopisca, Chiapas",16.5414817,-92.47262119999999
"Suchiapa, Puebla",16.626741,-93.1002082
"Sierra Mojada, Chiapas",16.0767797,-93.6683808
"San Pedro Y San Pablo Tequixtepec, Oaxaca",18.0588584,-97.71848659999999
"Torreon, Tlaxcala",19.3262732,-98.2282092
"Sitala, Veracruz De Ignacio De La Llave",17.0244122,-92.3058451
"Tapachula, Veracruz De Ignacio De La Llave",14.9055567,-92.26341359999999
"Nicolas Ruiz, Tlaxcala",16.4384722,-92.5836337
"Hidalgo, Veracruz De Ignacio De La Llave",20.5475965,-97.4536596
"Viesca, Durango",25.3453848,-102.8083503
"Ocampo, Tlaxcala",19.3139243,-98.2404397
"San Juan Lajarcia, Veracruz De Ignacio De La Llave",16.5102861,-95.9260681
"Jesus Maria, Campeche",19.8481941,-90.5330463
"Ixtacomitan, Puebla",17.4295464,-93.0973264
"Tenejapa, Michoacan De Ocampo",16.8189794,-92.50579619999999
"Lamadrid, Chiapas",27.0505964,-101.7932329
"Hidalgo, San Luis Potosi",22.4483798,-100.6791799
"San Ildefonso Amatlan, Puebla",16.334628,-96.490774
"San Jacinto Amilpas, Oaxaca",17.101352,-96.759611
"Santa Maria Teopoxco, Oaxaca",18.1678382,-96.95435040000001
"Jimenez, Guanajuato",20.3250943,-100.5478945
"Solosuchiapa, Hidalgo",17.4297762,-93.0355476
"Hidalgo, Nuevo Leon",25.9747274,-100.4565159
"San Cristobal De Las Casas, Yucatan",16.7380285,-92.6500427
"Mapastepec, Jalisco",15.4329682,-92.8978399
"San Juan Mazatlan, Puebla",17.0268039,-95.4396084
"Progreso, Puebla",18.0366665,-98.3105555
"Tepezala, Colima",22.2241419,-102.1738022
"Animas Trujano, Veracruz De Ignacio De La Llave",16.9892472,-96.7132783
"Teopisca, Mexico",16.5414817,-92.47262119999999
"Osumacinta, Puebla",16.9359747,-93.0917209
"San Juan Atepec, Veracruz De Ignacio De La Llave",17.4265204,-96.5404581
"Rincon De Romos, Queretaro",20.5938624,-100.3948454
"Calvillo, Yucatan",20.9907969,-89.66528079999999
"Jimenez, Sinaloa",23.6616574,-106.4367597
"Pichucalco, Oaxaca",17.511472,-93.11023449999999
"Rincon De Romos, Tamaulipas",22.2289132,-102.3206187
"Sierra Mojada, Michoacan De Ocampo",27.2906955,-103.7014059
"Mazapa De Madero, Tlaxcala",19.5942764,-98.576912
"Ocosingo, Yucatan",16.9087202,-92.0943704
"Mitontic, Tlaxcala",16.8608333,-92.62823189999999
"Tumbala, Puebla",17.2769854,-92.3158981
"San Cristobal De Las Casas, Hidalgo",16.7025924,-92.6186561
"San Ildefonso Sola, Puebla",16.5192717,-96.98257819999999
"Pabellon De Arteaga, Michoacan De Ocampo",22.144474,-102.274822
"Rincon De Romos, Sinaloa",22.2289132,-102.3206187
"San Juan Colorado, Veracruz De Ignacio De La Llave",16.459818,-97.9543638
"Cosio, Puebla",18.9604193,-98.2408318
"Aguascalientes, Morelos",21.8629984,-102.2562225
"Yajalon, Veracruz De Ignacio De La Llave",17.1734888,-92.32955799999999
"San Juan Quiotepec, Puebla",17.6021084,-96.5876817
"Rayon, Veracruz De Ignacio De La Llave",17.4988899,-93.8577799
"Tapilula, Oaxaca",17.2501706,-93.01677699999999
"Parras, Zacatecas",22.765774,-102.5720036
"San Miguel Tequixtepec, Oaxaca",17.8007552,-97.3381532
"Venustiano Carranza, Chiapas",16.3386834,-92.56214609999999
"El Parral, Puebla",18.9845847,-98.2009753
"Ramos Arizpe, Chihuahua",25.5411499,-100.9483074
"Ixhuatan, Yucatan",17.2925874,-93.00857309999999
"Viesca, Mexico",25.3453848,-102.8083503
"Cosio, Nayarit",21.0373616,-104.3798035
"Cosio, Veracruz De Ignacio De La Llave",22.3656529,-102.2997344
"Las Rosas, Hidalgo",20.5644445,-99.75166660000001
"San Francisco De Los Romo, Aguascalientes",22.0745573,-102.2690988
"San Buenaventura, Morelos",19.0343125,-99.20498429999999
"San Juan De Sabinas, Chihuahua",27.9221798,-101.300168
"Nava, Durango",24.0781886,-104.5934402
"Matamoros, Mexico",25.8690294,-97.50273759999999
"Huitiupan, Tamaulipas",17.1705587,-92.6853429
"Ramos Arizpe, Yucatan",25.9416797,-101.7600608
"Calvillo, Aguascalientes",21.8468345,-102.7186454
"San Francisco De Los Romo, Tamaulipas",22.072397,-102.272447
"San Jose De Gracia, Tlaxcala",22.150137,-102.4232442
"Zaragoza, Nuevo Leon",23.9654349,-99.770657
"Mazatan, Hidalgo",14.8645445,-92.4490277
"Aldama, Mexico",28.8370715,-105.9288641
"Teopisca, Puebla",16.5414817,-92.47262119999999
"Villa De Zaachila, Oaxaca",16.9512652,-96.75207569999999
"Guerrero, Chiapas",15.691634,-92.62016779999999
"San Juan Bautista Atatlahuca, Veracruz De Ignacio De La Llave",17.5308587,-96.8305364
"Nicolas Ruiz, Puebla",16.4384722,-92.5836337
"San Juan Colorado, Oaxaca",16.459818,-97.9543638
"La Independencia, Michoacan De Ocampo",19.4318565,-100.3525084
"Tuxtla Gutierrez, Veracruz De Ignacio De La Llave",16.7516009,-93.1029939
"Socoltenango, Michoacan De Ocampo",16.2439259,-92.3504194
"Ixtapangajoya, Mexico",17.495665,-93.001862
"San Pedro Pochutla, Oaxaca",15.7489259,-96.4672856
"Siltepec, Mexico",15.5575566,-92.32331390000002
"Tepezala, Chihuahua",22.2241419,-102.1738022
"San Jose De Gracia, Hidalgo",22.1498216,-102.4156404
"Piedras Negras, Jalisco",19.2999963,-102.8999983
"Ramos Arizpe, Mexico",25.5411499,-100.9483074
"Viesca, Zacatecas",25.3453848,-102.8083503
"Mitontic, San Luis Potosi",16.8608333,-92.62823189999999
"Santiago Tilantongo, Oaxaca",17.282364,-97.3394612
"Tenejapa, Jalisco",16.8189794,-92.50579619999999
"Pabellon De Arteaga, Tlaxcala",22.144474,-102.274822
"Jiquipilas, Tlaxcala",16.66914,-93.6480054
"San Buenaventura, Chihuahua",29.8448272,-107.4663401
"San Francisco Jaltepetongo, Puebla",17.3868225,-97.2619587
"Ixtapa, Yucatan",17.6625661,-101.58734
"Progreso, Morelos",18.8820082,-99.1445169
"Tenejapa, Mexico",16.8189794,-92.50579619999999
"Emiliano Zapata, Jalisco",19.3906611,-104.9651706
"Jitotol, Michoacan De Ocampo",17.0667204,-92.86038239999999
"San Juan De Los Cues, Veracruz De Ignacio De La Llave",18.0466604,-97.0593894
"Jesus Maria, Oaxaca",20.6040529,-102.2236954
"Ixhuatan, Michoacan De Ocampo",16.3489502,-94.48255119999999
"Progreso, Chiapas",15.600501,-93.14357
"Ostuacan, Yucatan",17.4077827,-93.33543089999999
"El Llano, Puebla",20.1687672,-98.0569184
"Mapastepec, Tlaxcala",15.4329682,-92.8978399
"El Llano, Campeche",19.8301251,-90.5349087
"Pantelho, Jalisco",17.0050996,-92.46906919999999
"Sabanilla, Yucatan",17.2822829,-92.5517584
"Las Margaritas, Tlaxcala",19.3210368,-98.2374
"Tapalapa, Veracruz De Ignacio De La Llave",18.5319399,-95.30582989999999
"Villa Union, Yucatan",28.2237682,-100.7255689
"San Felipe Usila, Puebla",17.8896907,-96.52234490000001
"Oxchuc, Yucatan",16.7880529,-92.3455194
"Villa Corzo, Puebla",16.1853857,-93.2681856
"Matamoros, Puebla",18.5991249,-98.4677851
"Cosio, Queretaro",20.5875864,-100.3756784
"Calvillo, Veracruz De Ignacio De La Llave",21.8468345,-102.7186454
"Metapa, Yucatan",14.8404304,-92.18839799999999
"Villa Union, San Luis Potosi",22.163365,-100.9426194
"San Juan Cotzocon, Oaxaca",17.163192,-95.7787455
"Pantepec, Yucatan",20.5200163,-97.9388566
"Jesus Maria, Nuevo Leon",25.7477777,-100.0727777
"San Francisco De Los Romo, Guerrero",22.0802909,-102.2737629
"San Fernando, Oaxaca",18.1266666,-96.49861109999999
"Ocozocoautla De Espinosa, Michoacan De Ocampo",16.7608719,-93.3741647
"Cosio, Guanajuato",21.0190145,-101.2573586
"Lamadrid, Mexico",27.0505964,-101.7932329
"Metapa, Chihuahua",14.8404304,-92.18839799999999
"Nadadores, Tlaxcala",19.3139243,-98.2404397
"Ocotepec, Hidalgo",19.6958114,-98.4338612
"Viesca, Guanajuato",25.3453848,-102.8083503
"Huixtla, Veracruz De Ignacio De La Llave",15.137663,-92.46591889999999
"Villa De Etla, Oaxaca",17.2029813,-96.8010573
"Zaragoza, Michoacan De Ocampo",20.3389221,-101.9647654
"Las Rosas, Mexico",31.8699722,-116.6770333
"Tuxtla Chico, Mexico",14.9374337,-92.1671288
"La Libertad, Michoacan De Ocampo",20.0086381,-102.3227659
"Lamadrid, Hidalgo",27.0505964,-101.7932329
"Osumacinta, Mexico",16.9359747,-93.0917209
"Simojovel, Michoacan De Ocampo",17.1405789,-92.7108991
"Soyalo, Mexico",16.8905692,-92.9227329
"Motozintla, Chiapas",15.3691977,-92.2458096
"Larrainzar, Tlaxcala",16.745838,-92.6401794
"Aguascalientes, Yucatan",21.905715,-102.2963291
"San Juan Tamazola, Puebla",17.160291,-97.22685960000001
"Hidalgo, Guanajuato",21.151597,-100.9367183
"Rayon, Puebla",18.484198,-98.69719579999999
"San Francisco Chapulapa, Veracruz De Ignacio De La Llave",17.9410487,-96.7560906
"Jimenez, San Luis Potosi",22.1532525,-100.9717305
"San Jose De Gracia, Campeche",19.8357252,-90.53038830000001
"Mezcalapa, Oaxaca",17.0731842,-96.7265889
"San Pablo Etla, Oaxaca",17.150816,-96.7574289
"Suchiate, Oaxaca",14.625187,-92.243931
"Ixtapangajoya, Guerrero",17.495665,-93.001862
"San Juan Bautista Lo De Soto, Puebla",16.5116662,-98.3478624
"San Jose De Gracia, Colima",19.24058,-103.72204
"Mapastepec, Veracruz De Ignacio De La Llave",15.4329682,-92.8978399
"Sitala, Mexico",17.0244122,-92.3058451
"Pabellon De Arteaga, Hidalgo",22.1497379,-102.2796115
"Osumacinta, Oaxaca",16.9359747,-93.0917209
"Ixtapa, Puebla",18.7166659,-97.4580541
"Motozintla, San Luis Potosi",15.3691977,-92.2458096
"Ixtacomitan, Tamaulipas",17.4295464,-93.0973264
"San Francisco Teopan, Veracruz De Ignacio De La Llave",17.8491986,-97.4963003
"La Libertad, Guerrero",17.7461111,-98.7383333
"San Juan Mixtepec, Puebla",19.0414398,-98.2062727
"El Llano, Nayarit",21.4188889,-105.1786112
"Jiquipilas, Yucatan",16.66914,-93.6480054
"Jesus Maria, Guanajuato",21.5788888,-101.3847221
"San Juan Bautista Tlacoatzintepec, Veracruz De Ignacio De La Llave",17.8592082,-96.58529639999999
"Asientos, Chihuahua",28.6329957,-106.0691004
"Tepezala, San Luis Potosi",22.2221686,-102.1682749
"Calvillo, Puebla",21.8468345,-102.7186454
"Ramos Arizpe, Morelos",25.5343706,-100.9532519
"Soyalo, Yucatan",16.8905692,-92.9227329
"Ocampo, Oaxaca",17.0566665,-96.7226421
"Sitala, Puebla",17.0244122,-92.3058451
"Sierra Mojada, Durango",24.015667,-104.7080002
"Ocozocoautla De Espinosa, Veracruz De Ignacio De La Llave",16.7608719,-93.3741647
"Piedras Negras, Michoacan De Ocampo",28.6916182,-100.5408622
"Union Hidalgo, Oaxaca",16.4762841,-94.8339175
"San Andres Duraznal, Puebla",17.1328015,-92.80475039999999
"Jesus Maria, Puebla",19.1874999,-97.13333329999999
"Tepezala, Queretaro",22.2241419,-102.1738022
"Juarez, Tlaxcala",19.5849129,-98.42828109999999
"El Llano, Guanajuato",21.0058301,-101.8528208
"San Francisco Del Mar, Puebla",19.0449233,-98.18944669999999
"San Francisco Cajonos, Puebla",17.1722291,-96.250976
"Ixtapangajoya, Zacatecas",17.495665,-93.001862
"La Libertad, San Luis Potosi",22.1226669,-100.9079575
"Huixtla, Tlaxcala",15.137663,-92.46591889999999
"Jiquipilas, Michoacan De Ocampo",19.6396525,-101.1618304
"San Juan De Sabinas, Veracruz De Ignacio De La Llave",27.9270787,-101.3023954
"Viesca, Michoacan De Ocampo",25.3453848,-102.8083503
"San Pedro Molinos, Oaxaca",17.1039114,-97.5407097
"Aguascalientes, Queretaro",20.6471769,-100.4538081
"San Juan De Sabinas, Yucatan",27.9270787,-101.3023954
"Aldama, Michoacan De Ocampo",19.6976851,-101.2665723
"Viesca, Hidalgo",25.3404283,-102.8050152
"San Buenaventura, Guanajuato",20.2188481,-100.8888982
"San Juan Lalana, Puebla",17.47005,-95.87839020000001
"Osumacinta, Michoacan De Ocampo",16.9359747,-93.0917209
"Tuzantan, Oaxaca",15.1466006,-92.4221065
"La Independencia, Jalisco",25.6514787,-100.3144455
"Osumacinta, Chihuahua",28.6022758,-106.1040379
"Tapalapa, Puebla",17.1898377,-93.10461409999999
"Piedras Negras, Oaxaca",15.8361331,-96.602509
"Sacramento, Guanajuato",20.6739624,-101.3443647
"Jesus Maria, Queretaro",20.62387,-100.256946
"San Gabriel Mixtepec, Puebla",16.0946107,-97.0815626
"Mezcalapa, Jalisco",20.949224,-102.8447652
"Villa Comaltitlan, Michoacan De Ocampo",15.2127239,-92.57623459999999
"Pichucalco, Yucatan",17.511472,-93.11023449999999
"San Pedro, Jalisco",20.096368,-104.2789014
"Huixtla, Tamaulipas",15.137663,-92.46591889999999
"Suchiapa, Veracruz De Ignacio De La Llave",16.626741,-93.1002082
"Motozintla, Michoacan De Ocampo",15.3691977,-92.2458096
"Tenejapa, Yucatan",16.8189794,-92.50579619999999
"Guerrero, Nayarit",22.4042588,-105.4551365
"Sacramento, Zacatecas",22.7502786,-102.6069109
"Pabellon De Arteaga, Yucatan",22.144474,-102.274822
"Teuchitlan, Yucatan",20.685614,-103.8477335
"Huitiupan, Guerrero",17.1705587,-92.6853429
"Ocampo, Morelos",18.9285533,-99.25170969999999
"San Buenaventura, Hidalgo",19.820923,-99.3222327
"Suchiapa, Yucatan",16.626741,-93.1002082
"San Juan Ozolotepec, Puebla",16.1315697,-96.2588514
"Totolapa, Mexico",16.5449932,-92.6778882
"Lamadrid, Durango",24.0350841,-104.6988701
"Mazatan, Tlaxcala",14.8645935,-92.4480536
"Totolapa, Michoacan De Ocampo",16.5449932,-92.6778882
"El Llano, Oaxaca",17.0679811,-96.7196525
"Morelos, Nayarit",21.841272,-105.2839429
"Monclova, Guanajuato",26.8972682,-101.4176672
"Viesca, San Luis Potosi",25.3453848,-102.8083503
"Jiquipilas, San Luis Potosi",16.66914,-93.6480054
"Ocosingo, Veracruz De Ignacio De La Llave",16.9087202,-92.0943704
"Huitiupan, Zacatecas",17.1705587,-92.6853429
"Zaragoza, Hidalgo",20.9081276,-98.91334300000001
"El Porvenir, Jalisco",20.3435291,-102.7609216
"San Juan Del Rio, Puebla",19.0606964,-98.2419991
"Mazatan, Puebla",14.8645935,-92.4480536
"Ixhuatan, Guerrero",17.2925874,-93.00857309999999
"Ixtapangajoya, Yucatan",17.495665,-93.001862
"La Libertad, Hidalgo",27.4908893,-99.52858719999999
"Mitontic, Morelos",16.8608333,-92.62823189999999
"Sacramento, Chihuahua",28.8608551,-106.199266
"San Juan De Sabinas, Chiapas",27.9270787,-101.3023954
"Tuzantan, Yucatan",15.1466006,-92.4221065
"Oxchuc, Hidalgo",16.7880529,-92.3455194
"Piedras Negras, Nuevo Leon",25.3770232,-99.13555749999999
"Metapa, Tlaxcala",14.8404304,-92.18839799999999
"La Libertad, Chihuahua",28.6006687,-106.0184663
"Benemerito De Las Americas, Mexico",16.5142764,-90.65409540000002
"Reforma, Yucatan",20.982304,-89.6261859
"Mazapa De Madero, Yucatan",15.387171,-92.187527
"San Juan Bautista Jayacatlan, Puebla",18.084785,-96.12719779999999
"Union Juarez, Yucatan",15.0645412,-92.08118379999999
"Lamadrid, Zacatecas",27.0505964,-101.7932329
"Monclova, Durango",26.9040938,-101.4276424
"El Llano, Chihuahua",26.9313823,-105.4002187
"San Pedro Comitancillo, Oaxaca",16.4899209,-95.1548174
"El Parral, Veracruz De Ignacio De La Llave",19.84417,-96.7325001
"Larrainzar, San Luis Potosi",16.8820217,-92.71204159999999
"Santa Cruz Amilpas, Oaxaca",17.0607931,-96.6811877
"San Juan Ihualtepec, Puebla",17.7404437,-98.2899405
"Aguascalientes, Colima",21.8595625,-102.3012556
"Larrainzar, Nuevo Leon",16.8820217,-92.71204159999999
"Las Margaritas, Chiapas",16.315474,-91.98795299999999
"Villa Union, Tlaxcala",28.2237682,-100.7255689
"Zimatlan De Alvarez, Oaxaca",16.8680151,-96.7842015
"San Lucas, Puebla",19.306874,-98.4812309
"Tepezala, Hidalgo",20.1855582,-98.5401602
"San Pedro Atoyac, Oaxaca",16.4880172,-97.98711159999999
"Saltillo, Hidalgo",26.1045098,-98.23342099999999
"Sierra Mojada, Mexico",27.2906955,-103.7014059
"Mitontic, Hidalgo",16.8608333,-92.62823189999999
"Calvillo, Morelos",21.8442992,-102.7136917
"Pantelho, Hidalgo",17.0050996,-92.46906919999999
"Mazatan, Zacatecas",22.7724674,-102.5716594
"San Juan De Sabinas, Tlaxcala",27.9270787,-101.3023954
"Mazatan, San Luis Potosi",22.1411093,-100.9973157
"Zaragoza, Zacatecas",22.7785928,-102.571809
"Villa Union, Tamaulipas",25.8276282,-97.5227008
"San Francisco Chapulapa, Puebla",17.9410487,-96.7560906
"San Jose De Gracia, Puebla",18.642789,-97.8473549
"San Francisco De Los Romo, Tabasco",22.0745573,-102.2690988
"Ixtacomitan, Yucatan",17.4295464,-93.0973264
"Cosio, Hidalgo",22.3656529,-102.2997344
